     3.00           OBSERVATION DATA    G: GPS              RINEX VERSION / TYPE
RTKCONV 2.4.3 b32                       20200214 163348 UTC PGM / RUN BY / DATE 
log: C:\Users\lis4hi\Desktop\bosch\MatlabCode\KF&WLS\Data\  COMMENT             
format: u-blox                                              COMMENT             
                                                            MARKER NAME         
                                                            MARKER NUMBER       
                                                            MARKER TYPE         
                                                            OBSERVER / AGENCY   
                                                            REC # / TYPE / VERS 
                                                            ANT # / TYPE        
  3866792.6345   674227.6514  5010770.3987                  APPROX POSITION XYZ 
        0.0000        0.0000        0.0000                  ANTENNA: DELTA H/E/N
G    8 C1C L1C D1C S1C C2L L2L D2L S2L                      SYS / # / OBS TYPES 
  2019     5    23     8    24   54.0040000     GPS         TIME OF FIRST OBS   
  2019     5    23     9    16   30.0060000     GPS         TIME OF LAST OBS    
                                                            END OF HEADER       
> 2019  5 23  8 24 54.0040000  0 10                     
G12  21544739.126   113218362.253         596.273          47.000    21544737.081    88222090.232         464.678          45.000  
G15  25728376.207   135203525.988       -4544.078          45.000    25728376.274   105353426.542       -3540.994          38.000  
G25  24267601.066   127527102.907        2431.640          47.000    24267603.908    99371787.187        1894.850          43.000  
G14  26189765.369   137628147.482        2431.130          37.000                                                                  
G 6  25510910.790   134060740.773        1804.701          43.000    25510913.293   104462984.766        1406.099          39.000  
G17  24671978.512   129652117.799       -3338.027          45.000    24671976.660   101027617.893       -2600.805          42.000  
G19  22935139.395   120524967.484       -2218.783          43.000                                                                  
G24  21633003.806   113682203.423       -1892.593          48.000    21633004.660    88583541.356       -1474.709          46.000  
G32  24576741.738   129151641.702        1733.391          42.000    24576743.519   100637657.028        1351.052          41.000  
G 2  26610308.986   139838085.530        2133.770          36.000                                                                  
> 2019  5 23  8 24 55.0040000  0 10                     
G12  21544625.616   113217765.972         595.896          47.000    21544623.613    88221625.592         464.360          45.000  
G15  25729240.910   135208069.833       -4544.055          45.000    25729240.912   105356967.194       -3540.967          38.000  
G25  24267138.491   127524671.123        2431.595          47.000    24267141.048    99369892.300        1894.762          43.000  
G14  26189302.715   137625716.644        2430.498          37.000                                                                  
G 6  25510567.379   134058935.949        1804.493          43.000    25510569.913   104461578.394        1406.318          39.000  
G17  24672613.719   129655455.739       -3338.203          45.000    24672611.860   101030218.892       -2601.129          42.000  
G19  22935561.674   120527186.439       -2219.453          43.000                                                                  
G24  21633363.931   113684096.000       -1892.946          48.000    21633364.904    88585016.090       -1475.013          46.000  
G32  24576411.798   129149908.103        1733.125          42.000    24576413.659   100636306.170        1350.671          41.000  
G 2  26609902.993   139835951.833        2133.321          36.000                                                                  
> 2019  5 23  8 24 56.0040000  0 10                     
G12  21544512.267   113217170.396         595.170          47.000    21544510.183    88221161.508         463.755          45.000  
G15  25730105.634   135212613.918       -4544.175          45.000    25730105.734   105360508.046       -3541.243          38.000  
G25  24266675.866   127522239.805        2431.035          47.000    24266678.365    99367997.762        1894.450          43.000  
G14  26188840.271   137623286.242        2430.352          37.000                                                                  
G 6  25510223.988   134057131.663        1804.081          43.000    25510226.588   104460172.484        1405.608          40.000  
G17  24673249.051   129658794.296       -3338.996          45.000    24673247.199   101032820.356       -2601.716          42.000  
G19  22935984.061   120529406.305       -2220.544          44.000                                                                  
G24  21633724.191   113685989.307       -1893.678          48.000    21633725.353    88586491.400       -1475.586          46.000  
G32  24576081.982   129148175.173        1732.410          42.000    24576084.021   100634955.846        1349.948          41.000  
G 2  26609496.854   139833818.315        2132.950          36.000                                                                  
> 2019  5 23  8 24 57.0040000  0 10                     
G12  21544399.029   113216575.429         594.440          47.000    21544396.920    88220697.900         463.135          45.000  
G15  25730970.316   135217158.180       -4544.514          45.000    25730970.365   105364048.999       -3541.048          38.000  
G25  24266213.216   127519808.816        2430.680          47.000    24266215.837    99366103.487        1894.136          43.000  
G14  26188377.737   137620856.178        2430.258          37.000                                                                  
G 6  25509880.754   134055327.822        1803.584          43.000    25509883.328   104458766.893        1405.287          40.000  
G17  24673884.540   129662133.323       -3339.436          45.000    24673882.634   101035422.216       -2602.186          42.000  
G19  22936406.454   120531626.944       -2221.204          44.000                                                                  
G24  21634084.575   113687883.201       -1894.233          48.000    21634085.700    88587967.155       -1475.915          46.000  
G32  24575752.331   129146442.815        1731.924          42.000    24575754.420   100633605.967        1349.316          41.000  
G 2  26609090.783   139831684.894        2134.016          36.000                                                                  
> 2019  5 23  8 24 58.0040000  0 10                     
G12  21544285.958   113215980.958         594.273          47.000    21544283.835    88220234.681         463.011          45.000  
G15  25731835.034   135221702.465       -4544.188          45.000    25731835.131   105367590.022       -3541.293          38.000  
G25  24265750.614   127517378.069        2430.713          47.000    24265753.306    99364209.407        1894.017          43.000  
G14  26187915.405   137618426.335        2430.172          37.000                                                                  
G 6  25509537.564   134053524.336        1803.049          43.000    25509540.111   104457361.566        1405.206          40.000  
G17  24674519.879   129665472.750       -3339.557          45.000    24674518.099   101038024.350       -2602.118          42.000  
G19  22936829.155   120533848.277       -2221.694          44.000                                                                  
G24  21634445.039   113689777.585       -1894.507          48.000    21634446.155    88589443.305       -1476.282          46.000  
G32  24575422.746   129144710.914        1731.785          42.000    24575424.886   100632256.426        1349.506          41.000  
G 2  26608684.748   139829551.528        2133.974          36.000                                                                  
> 2019  5 23  8 24 59.0040000  0 10                     
G12  21544172.870   113215387.000         593.494          47.000    21544170.701    88219771.849         462.565          45.000  
G15  25732699.733   135226246.821       -4544.596          45.000    25732699.922   105371131.070       -3541.498          38.000  
G25  24265288.116   127514947.579        2430.156          47.000    24265290.754    99362315.505        1893.848          43.000  
G14  26187452.988   137615996.764        2429.219          37.000                                                                  
G 6  25509194.385   134051721.177        1802.825          43.000    25509196.972   104455956.508        1404.896          40.000  
G17  24675155.499   129668812.579       -3340.126          45.000    24675153.604   101040626.817       -2602.656          42.000  
G19  22937251.848   120536070.298       -2222.580          44.000                                                                  
G24  21634805.658   113691672.483       -1895.334          48.000    21634806.725    88590919.842       -1476.827          46.000  
G32  24575093.225   129142979.480        1731.256          42.000    24575095.489   100630907.266        1348.899          41.000  
G 2  26608278.732   139827418.184        2133.492          36.000                                                                  
> 2019  5 23  8 25  0.0040000  0 10                     
G12  21544059.844   113214793.329         593.269          47.000    21544057.689    88219309.249         462.283          45.000  
G15  25733564.404   135230791.008       -4544.374          45.000    25733564.652   105374671.978       -3540.711          38.000  
G25  24264825.566   127512517.117        2430.306          47.000    24264828.155    99360421.657        1893.704          43.000  
G14  26186990.735   137613567.208        2429.335          37.000                                                                  
G 6  25508851.199   134049918.147        1802.855          42.000    25508853.809   104454551.571        1404.832          39.000  
G17  24675791.063   129672152.582       -3340.309          45.000    24675789.256   101043229.427       -2602.993          42.000  
G19  22937674.708   120538292.788       -2222.943          44.000                                                                  
G24  21635166.202   113693567.642       -1895.479          48.000    21635167.494    88592396.593       -1477.022          46.000  
G32  24574763.811   129141248.317        1731.000          42.000    24574765.964   100629558.309        1348.596          41.000  
G 2  26607872.716   139825284.660        2133.230          36.000                                                                  
> 2019  5 23  8 25  1.0040000  0 10                     
G12  21543947.001   113214200.156         592.951          47.000    21543944.784    88218847.031         462.156          45.000  
G15  25734429.134   135235335.232       -4544.113          45.000    25734429.571   105378212.950       -3540.939          38.000  
G25  24264363.084   127510086.901        2430.145          47.000    24264365.674    99358527.974        1893.628          43.000  
G14  26186528.440   137611137.861        2429.469          37.000                                                                  
G 6  25508508.199   134048115.451        1802.816          43.000    25508510.808   104453146.873        1404.530          39.000  
G17  24676426.707   129675492.969       -3340.432          45.000    24676424.853   101045832.315       -2602.907          42.000  
G19  22938097.816   120540515.941       -2223.258          44.000                                                                  
G24  21635526.908   113695463.280       -1895.779          48.000    21635528.157    88593873.715       -1477.365          46.000  
G32  24574434.662   129139517.594        1730.476          42.000    24574436.634   100628209.695        1348.327          41.000  
G 2  26607466.640   139823151.133        2133.259          36.000                                                                  
> 2019  5 23  8 25  2.0040000  0 10                     
G12  21543834.232   113213607.471         592.436          48.000    21543831.925    88218385.207         461.644          45.000  
G15  25735293.908   135239879.511       -4544.422          45.000    25735294.288   105381753.937       -3541.182          38.000  
G25  24263900.746   127507656.920        2429.692          47.000    24263903.210    99356634.485        1893.393          43.000  
G14  26186066.220   137608708.781        2428.519          37.000                                                                  
G 6  25508165.195   134046313.124        1801.870          43.000    25508167.792   104451742.470        1403.810          39.000  
G17  24677062.441   129678833.761       -3341.004          45.000    24677060.617   101048435.532       -2603.401          42.000  
G19  22938520.891   120542739.806       -2224.311          44.000                                                                  
G24  21635887.718   113697359.439       -1896.400          48.000    21635889.008    88595351.243       -1477.859          46.000  
G32  24574105.451   129137787.340        1729.865          42.000    24574107.359   100626861.449        1347.750          41.000  
G 2  26607060.642   139821017.614        2133.469          35.000                                                                  
> 2019  5 23  8 25  3.0040000  0 10                     
G12  21543721.593   113213015.300         591.851          48.000    21543719.249    88217923.770         461.124          45.000  
G15  25736158.590   135244423.823       -4544.507          45.000    25736159.098   105385294.944       -3540.957          38.000  
G25  24263438.367   127505227.185        2429.510          47.000    24263440.819    99354741.183        1893.104          43.000  
G14  26185604.093   137606279.879        2428.928          37.000                                                                  
G 6  25507822.274   134044511.099        1801.754          43.000    25507824.875   104450338.275        1404.224          39.000  
G17  24677698.265   129682174.921       -3341.320          45.000    24677696.510   101051039.044       -2603.791          41.000  
G19  22938944.133   120544964.337       -2224.937          44.000                                                                  
G24  21636248.686   113699256.116       -1897.034          48.000    21636250.020    88596829.167       -1478.143          46.000  
G32  24573776.262   129136057.539        1729.479          42.000    24573778.186   100625513.559        1347.364          41.000  
G 2  26606654.512   139818884.121        2133.369          35.000                                                                  
> 2019  5 23  8 25  4.0040000  0 10                     
G12  21543609.070   113212423.619         591.457          48.000    21543606.712    88217462.723         460.834          45.000  
G15  25737023.423   135248968.183       -4544.580          45.000    25737023.851   105388836.026       -3541.373          38.000  
G25  24262976.053   127502797.697        2429.302          47.000    24262978.550    99352848.086        1892.920          43.000  
G14  26185141.934   137603851.240        2428.526          37.000                                                                  
G 6  25507479.414   134042709.426        1801.311          43.000    25507482.074   104448934.397        1403.555          39.000  
G17  24678334.104   129685516.483       -3341.883          45.000    24678332.362   101053642.839       -2603.900          41.000  
G19  22939367.433   120547189.548       -2225.700          44.000                                                                  
G24  21636609.670   113701153.278       -1897.418          48.000    21636611.104    88598307.478       -1478.633          46.000  
G32  24573447.190   129134328.190        1729.358          42.000    24573449.115   100624166.020        1347.277          41.000  
G 2  26606248.413   139816750.621        2133.771          35.000                                                                  
> 2019  5 23  8 25  5.0040000  0 10                     
G12  21543496.590   113211832.570         590.753          48.000    21543494.268    88217002.164         460.317          45.000  
G15  25737888.196   135253512.721       -4544.690          45.000    25737888.592   105392377.221       -3541.613          38.000  
G25  24262513.766   127500368.579        2428.922          47.000    24262516.338    99350955.257        1892.725          43.000  
G14  26184679.850   137601422.966        2428.532          37.000                                                                  
G 6  25507136.595   134040908.203        1800.991          43.000    25507139.433   104447530.844        1403.320          39.000  
G17  24678970.036   129688858.553       -3342.232          45.000    24678968.309   101056247.046       -2604.150          42.000  
G19  22939791.054   120549415.578       -2226.419          44.000                                                                  
G24  21636970.847   113703051.063       -1898.112          48.000    21636972.139    88599786.266       -1479.012          46.000  
G32  24573118.225   129132599.460        1728.472          42.000    24573120.161   100622818.946        1346.796          41.000  
G 2  26605842.314   139814617.289        2133.058          35.000                                                                  
> 2019  5 23  8 25  6.0040000  0 10                     
G12  21543384.123   113211241.699         590.476          48.000    21543381.920    88216541.747         460.094          45.000  
G15  25738752.879   135258056.980       -4544.468          45.000    25738753.357   105395918.197       -3541.248          38.000  
G25  24262051.532   127497939.385        2428.903          47.000    24262054.157    99349062.369        1892.894          43.000  
G14  26184217.801   137598994.612        2428.099          37.000                                                                  
G 6  25506793.865   134039107.026        1800.847          43.000    25506796.723   104446127.336        1402.968          39.000  
G17  24679606.063   129692200.700       -3342.507          45.000    24679604.268   101058851.341       -2604.683          41.000  
G19  22940214.604   120551641.974       -2226.955          44.000                                                                  
G24  21637331.966   113704949.011       -1898.354          48.000    21637333.326    88601265.190       -1479.175          46.000  
G32  24572789.245   129130870.870        1728.229          42.000    24572791.185   100621471.985        1346.654          41.000  
G 2  26605436.307   139812483.641        2133.402          36.000                                                                  
> 2019  5 23  8 25  7.0040000  0 10                     
G12  21543271.726   113210651.273         589.956          48.000    21543269.568    88216081.671         459.739          45.000  
G15  25739617.621   135262601.237       -4544.452          45.000    25739618.180   105399459.170       -3541.259          38.000  
G25  24261589.324   127495510.380        2428.646          47.000    24261591.879    99347169.650        1892.384          43.000  
G14  26183755.721   137596566.409        2427.604          37.000                                                                  
G 6  25506451.153   134037306.108        1800.580          43.000    25506453.858   104444724.017        1403.048          39.000  
G17  24680242.078   129695543.186       -3343.076          45.000    24680240.347   101061455.861       -2604.964          41.000  
G19  22940638.475   120553868.991       -2227.781          44.000                                                                  
G24  21637693.196   113706847.404       -1898.879          48.000    21637694.520    88602744.460       -1479.714          46.000  
G32  24572460.332   129129142.671        1727.681          42.000    24572462.309   100620125.335        1346.416          41.000  
G 2  26605030.369   139810349.957        2133.352          35.000                                                                  
> 2019  5 23  8 25  8.0040000  0 10                     
G12  21543159.525   113210061.584         589.458          48.000    21543157.467    88215622.177         459.180          45.000  
G15  25740482.370   135267145.785       -4544.653          45.000    25740482.956   105403000.364       -3541.077          38.000  
G25  24261127.224   127493081.858        2428.347          47.000    24261129.752    99345277.304        1892.072          43.000  
G14  26183293.713   137594138.671        2428.011          37.000                                                                  
G 6  25506108.480   134035505.795        1800.078          43.000    25506111.315   104443321.182        1402.853          39.000  
G17  24680878.271   129698886.301       -3343.466          45.000    24680876.480   101064060.885       -2605.095          41.000  
G19  22941062.339   120556096.923       -2228.055          44.000                                                                  
G24  21638054.691   113708746.557       -1899.421          48.000    21638055.889    88604224.311       -1479.999          46.000  
G32  24572131.628   129127415.187        1727.299          42.000    24572133.631   100618779.247        1346.027          41.000  
G 2  26604624.277   139808216.521        2133.379          35.000                                                                  
> 2019  5 23  8 25  9.0040000  0 10                     
G12  21543047.474   113209472.379         589.000          48.000    21543045.419    88215163.052         459.072          45.000  
G15  25741347.198   135271690.352       -4544.704          45.000    25741347.767   105406541.600       -3541.410          38.000  
G25  24260665.168   127490653.569        2428.116          47.000    24260667.578    99343385.115        1892.118          43.000  
G14  26182831.776   137591711.190        2427.171          37.000                                                                  
G 6  25505765.943   134033705.788        1799.967          43.000    25505768.867   104441918.579        1402.567          39.000  
G17  24681514.511   129702229.777       -3343.677          45.000    24681512.750   101066666.194       -2605.543          41.000  
G19  22941486.424   120558325.552       -2229.243          44.000                                                                  
G24  21638416.199   113710646.199       -1899.890          48.000    21638417.422    88605704.548       -1480.241          46.000  
G32  24571802.901   129125688.152        1726.730          42.000    24571804.970   100617433.493        1345.790          41.000  
G 2  26604218.387   139806083.096        2133.562          35.000                                                                  
> 2019  5 23  8 25 10.0040000  0 10                     
G12  21542935.444   113208883.783         588.467          48.000    21542933.450    88214704.405         458.646          45.000  
G15  25742211.949   135276235.085       -4544.674          45.000    25742212.616   105410082.947       -3541.345          39.000  
G25  24260203.195   127488225.631        2427.821          47.000    24260205.630    99341493.219        1891.828          43.000  
G14  26182369.881   137589284.042        2426.991          37.000                                                                  
G 6  25505423.539   134031906.229        1799.565          43.000    25505426.488   104440516.335        1401.979          39.000  
G17  24682150.836   129705573.765       -3344.128          45.000    24682149.082   101069271.897       -2605.859          41.000  
G19  22941910.662   120560554.946       -2229.644          44.000                                                                  
G24  21638777.887   113712546.451       -1900.372          48.000    21638778.938    88607185.276       -1480.847          46.000  
G32  24571474.293   129123961.680        1726.301          42.000    24571476.485   100616088.222        1345.102          41.000  
G 2  26603812.480   139803949.776        2133.738          35.000                                                                  
> 2019  5 23  8 25 11.0040000  0 10                     
G12  21542823.550   113208295.579         588.064          48.000    21542821.534    88214246.068         458.217          45.000  
G15  25743076.764   135280779.753       -4544.651          45.000    25743077.448   105413624.246       -3541.497          38.000  
G25  24259741.275   127485797.815        2427.769          47.000    24259743.613    99339601.420        1891.687          43.000  
G14  26181908.152   137586857.005        2426.741          37.000                                                                  
G 6  25505081.082   134030106.909        1799.298          43.000    25505084.041   104439114.248        1402.267          39.000  
G17  24682787.212   129708918.035       -3344.273          45.000    24682785.475   101071877.820       -2606.140          41.000  
G19  22942335.001   120562784.923       -2230.090          44.000                                                                  
G24  21639139.553   113714447.102       -1900.867          48.000    21639140.687    88608666.299       -1481.208          46.000  
G32  24571145.845   129122235.558        1726.071          42.000    24571148.127   100614743.167        1345.025          41.000  
G 2  26603406.434   139801816.371        2133.150          35.000                                                                  
> 2019  5 23  8 25 12.0040000  0 10                     
G12  21542711.674   113207707.968         587.308          47.000    21542709.648    88213788.191         457.570          45.000  
G15  25743941.677   135285324.552       -4545.011          45.000    25743942.301   105417165.645       -3541.810          39.000  
G25  24259279.251   127483370.317        2427.260          47.000    24259281.694    99337709.865        1891.327          43.000  
G14  26181446.289   137584430.269        2426.812          37.000                                                                  
G 6  25504738.682   134028308.001        1798.661          43.000    25504741.742   104437712.518        1401.534          39.000  
G17  24683423.691   129712262.781       -3344.941          45.000    24683421.928   101074484.102       -2606.175          41.000  
G19  22942759.471   120565015.662       -2231.218          44.000                                                                  
G24  21639501.294   113716348.317       -1901.527          48.000    21639502.529    88610147.764       -1481.616          46.000  
G32  24570817.439   129120509.980        1725.301          42.000    24570819.719   100613398.574        1344.339          41.000  
G 2  26603000.459   139799683.048        2133.230          35.000                                                                  
> 2019  5 23  8 25 13.0040000  0 10                     
G12  21542599.921   113207121.117         586.341          47.000    21542598.018    88213330.910         456.836          45.000  
G15  25744806.510   135289869.640       -4545.103          45.000    25744807.242   105420707.280       -3541.966          39.000  
G25  24258817.456   127480943.325        2426.705          47.000    24258820.009    99335818.707        1890.836          43.000  
G14  26180984.501   137582004.023        2426.311          37.000                                                                  
G 6  25504396.485   134026509.696        1797.939          43.000    25504399.447   104436311.223        1401.267          39.000  
G17  24684060.297   129715608.176       -3345.761          45.000    24684058.590   101077090.909       -2607.039          41.000  
G19  22943184.066   120567247.332       -2232.231          44.000                                                                  
G24  21639863.299   113718250.293       -1902.425          48.000    21639864.520    88611629.817       -1482.215          46.000  
G32  24570489.283   129118785.129        1724.586          42.000    24570491.533   100612054.527        1343.903          41.000  
G 2  26602594.481   139797550.041        2132.812          35.000                                                                  
> 2019  5 23  8 25 14.0040000  0 10                     
G12  21542488.358   113206534.796         586.219          48.000    21542486.418    88212874.026         457.017          45.000  
G15  25745671.482   135294414.824       -4545.015          45.000    25745672.104   105424248.966       -3541.588          39.000  
G25  24258355.567   127478516.601        2426.958          47.000    24258358.246    99333927.758        1891.129          43.000  
G14  26180522.704   137579578.084        2426.029          37.000                                                                  
G 6  25504054.277   134024711.756        1797.870          43.000    25504057.309   104434910.243        1400.862          39.000  
G17  24684696.918   129718953.989       -3345.701          45.000    24684695.224   101079698.043       -2607.228          41.000  
G19  22943608.835   120569479.721       -2232.521          44.000                                                                  
G24  21640225.339   113720152.800       -1902.538          48.000    21640226.538    88613112.291       -1482.372          46.000  
G32  24570161.129   129117060.765        1724.453          42.000    24570163.511   100610710.882        1343.522          41.000  
G 2  26602188.608   139795417.049        2133.142          36.000                                                                  
> 2019  5 23  8 25 15.0040000  0 10                     
G12  21542376.874   113205949.109         585.214          48.000    21542374.927    88212417.660         455.911          45.000  
G15  25746536.466   135298960.181       -4545.340          45.000    25746537.094   105427790.824       -3542.422          39.000  
G25  24257893.856   127476090.288        2425.866          47.000    24257896.539    99332037.121        1890.301          43.000  
G14  26180061.178   137577152.489        2425.343          37.000                                                                  
G 6  25503712.294   134022914.300        1796.925          43.000    25503715.234   104433509.630        1400.134          39.000  
G17  24685333.723   129722300.334       -3346.705          45.000    24685331.978   101082305.585       -2608.073          41.000  
G19  22944033.826   120571712.948       -2233.876          44.000                                                                  
G24  21640587.492   113722055.969       -1903.565          48.000    21640588.676    88614595.291       -1483.307          46.000  
G32  24569833.077   129115337.018        1723.506          42.000    24569835.527   100609367.695        1342.838          41.000  
G 2  26601782.769   139793284.194        2132.775          36.000                                                                  
> 2019  5 23  8 25 16.0040000  0 10                     
G12  21542265.584   113205363.845         585.401          48.000    21542263.389    88211961.608         456.071          45.000  
G15  25747401.400   135303505.536       -4545.281          45.000    25747402.027   105431332.629       -3541.644          39.000  
G25  24257432.028   127473664.118        2426.324          47.000    24257434.839    99330146.599        1890.673          43.000  
G14  26179599.661   137574727.040        2425.816          37.000                                                                  
G 6  25503370.325   134021117.101        1797.388          43.000    25503373.257   104432109.208        1400.797          39.000  
G17  24685970.561   129725646.989       -3346.719          45.000    24685968.921   101084913.368       -2607.832          41.000  
G19  22944458.926   120573946.759       -2233.849          44.000                                                                  
G24  21640949.689   113723959.590       -1903.732          48.000    21640950.959    88616078.622       -1483.313          46.000  
G32  24569505.104   129113613.663        1723.230          42.000    24569507.572   100608024.820        1342.769          41.000  
G 2  26601377.037   139791151.321        2133.146          36.000                                                                  
> 2019  5 23  8 25 17.0040000  0 10                     
G12  21542154.332   113204779.023         584.581          48.000    21542152.179    88211505.897         455.547          45.000  
G15  25748266.289   135308050.856       -4545.522          45.000    25748266.960   105434874.431       -3541.966          39.000  
G25  24256970.360   127471238.137        2425.878          47.000    24256973.109    99328256.231        1890.187          43.000  
G14  26179138.041   137572301.806        2425.221          37.000                                                                  
G 6  25503028.225   134019320.189        1796.720          43.000    25503031.323   104430709.018        1399.973          39.000  
G17  24686607.512   129728993.956       -3347.219          45.000    24686605.803   101087521.377       -2608.056          41.000  
G19  22944884.067   120576181.189       -2234.643          44.000                                                                  
G24  21641311.981   113725863.620       -1904.348          48.000    21641313.277    88617562.288       -1483.950          46.000  
G32  24569177.113   129111890.691        1722.546          42.000    24569179.713   100606682.236        1342.316          41.000  
G 2  26600971.311   139789018.385        2132.822          36.000                                                                  
> 2019  5 23  8 25 18.0040000  0 10                     
G12  21542043.233   113204194.648         584.077          48.000    21542041.030    88211050.537         455.226          45.000  
G15  25749131.322   135312596.156       -4545.415          45.000    25749131.984   105438416.241       -3542.041          39.000  
G25  24256508.665   127468812.354        2425.646          47.000    24256511.557    99326366.009        1890.114          43.000  
G14  26178676.561   137569876.746        2424.778          37.000                                                                  
G 6  25502686.295   134017523.553        1796.604          43.000    25502689.504   104429309.045        1399.944          39.000  
G17  24687244.514   129732341.271       -3347.614          45.000    24687242.811   101090129.683       -2608.582          41.000  
G19  22945309.386   120578416.275       -2235.568          44.000                                                                  
G24  21641674.404   113727768.113       -1904.760          48.000    21641675.729    88619046.306       -1484.228          46.000  
G32  24568849.261   129110168.136        1722.248          42.000    24568851.936   100605339.998        1341.974          41.000  
G 2  26600565.468   139786885.426        2132.790          36.000                                                                  
> 2019  5 23  8 25 19.0040000  0 10                     
G12  21541932.022   113203610.556         584.025          48.000    21541929.761    88210595.403         455.112          45.000  
G15  25749996.175   135317141.324       -4545.130          45.000    25749996.947   105441957.898       -3541.397          39.000  
G25  24256047.062   127466386.607        2425.696          47.000    24256049.904    99324475.820        1890.080          43.000  
G14  26178215.065   137567451.697        2425.037          37.000                                                                  
G 6  25502344.512   134015727.080        1796.393          43.000    25502347.487   104427909.200        1399.835          39.000  
G17  24687881.453   129735688.770       -3347.690          45.000    24687879.759   101092738.108       -2608.505          41.000  
G19  22945734.766   120580651.821       -2235.886          44.000                                                                  
G24  21642036.788   113729672.900       -1904.958          48.000    21642038.243    88620530.551       -1484.284          46.000  
G32  24568521.487   129108445.841        1722.089          42.000    24568524.261   100603997.940        1342.114          41.000  
G 2  26600159.488   139784752.259        2133.470          37.000                                                                  
> 2019  5 23  8 25 20.0040000  0 10                     
G12  21541820.934   113203026.914         583.396          47.000    21541818.682    88210140.625         454.689          45.000  
G15  25750861.055   135321686.467       -4545.164          45.000    25750861.897   105445499.589       -3541.809          39.000  
G25  24255585.481   127463961.050        2425.571          47.000    24255588.344    99322585.780        1889.818          43.000  
G14  26177753.565   137565026.821        2424.985          37.000                                                                  
G 6  25502002.735   134013930.888        1795.703          43.000    25502005.621   104426509.559        1399.718          39.000  
G17  24688518.576   129739036.601       -3348.147          45.000    24688516.937   101095346.833       -2609.103          41.000  
G19  22946160.310   120582887.995       -2236.454          44.000                                                                  
G24  21642399.391   113731578.129       -1905.501          48.000    21642400.805    88622015.146       -1484.692          46.000  
G32  24568193.861   129106723.959        1721.729          42.000    24568196.567   100602656.226        1341.657          41.000  
G 2  26599753.609   139782619.085        2133.184          37.000                                                                  
> 2019  5 23  8 25 21.0040000  0 10                     
G12  21541709.860   113202443.640         583.048          47.000    21541707.687    88209686.132         454.245          45.000  
G15  25751725.964   135326231.535       -4544.972          45.000    25751726.822   105449041.195       -3541.735          39.000  
G25  24255123.927   127461535.620        2425.273          47.000    24255126.678    99320695.827        1889.806          43.000  
G14  26177292.036   137562602.092        2424.400          37.000                                                                  
G 6  25501660.935   134012134.887        1795.897          43.000    25501663.963   104425110.092        1399.460          39.000  
G17  24689155.715   129742384.718       -3348.341          45.000    24689154.057   101097955.730       -2609.047          41.000  
G19  22946585.892   120585124.738       -2237.218          44.000                                                                  
G24  21642761.968   113733483.724       -1905.922          48.000    21642763.413    88623500.018       -1484.955          46.000  
G32  24567866.226   129105002.417        1721.442          42.000    24567868.970   100601314.765        1341.355          41.000  
G 2  26599347.630   139780485.786        2133.198          37.000                                                                  
> 2019  5 23  8 25 22.0040000  0 10                     
G12  21541598.909   113201860.877         582.548          47.000    21541596.898    88209232.025         453.992          45.000  
G15  25752590.766   135330776.650       -4544.949          45.000    25752591.710   105452582.836       -3541.510          39.000  
G25  24254662.435   127459110.428        2425.248          47.000    24254665.174    99318806.069        1889.929          43.000  
G14  26176830.684   137560177.587        2424.581          37.000                                                                  
G 6  25501319.186   134010339.245        1795.746          43.000    25501322.293   104423710.907        1398.928          39.000  
G17  24689792.917   129745733.223       -3348.701          45.000    24689791.344   101100564.963       -2609.282          41.000  
G19  22947011.681   120587362.146       -2237.607          44.000                                                                  
G24  21643124.697   113735389.840       -1906.195          48.000    21643126.012    88624985.310       -1485.370          46.000  
G32  24567538.694   129103281.349        1720.911          42.000    24567541.425   100599973.659        1341.119          41.000  
G 2  26598941.631   139778352.538        2132.992          37.000                                                                  
> 2019  5 23  8 25 23.0040000  0 10                     
G12  21541488.047   113201278.998         581.497          48.000    21541486.246    88208778.617         453.048          45.000  
G15  25753455.772   135335322.207       -4545.732          44.000    25753456.729   105456124.838       -3542.227          39.000  
G25  24254201.099   127456685.880        2424.281          47.000    24254203.789    99316916.800        1889.234          43.000  
G14  26176369.522   137557753.688        2423.765          37.000                                                                  
G 6  25500977.735   134008544.345        1794.585          43.000    25500980.605   104422312.272        1398.447          39.000  
G17  24690430.328   129749082.491       -3349.457          45.000    24690428.697   101103174.778       -2609.967          41.000  
G19  22947437.733   120589600.650       -2239.044          44.000                                                                  
G24  21643487.701   113737296.861       -1907.400          48.000    21643488.977    88626471.308       -1486.503          46.000  
G32  24567211.367   129101561.123        1720.095          42.000    24567214.134   100598633.241        1340.013          41.000  
G 2  26598535.835   139776219.653        2132.582          37.000                                                                  
> 2019  5 23  8 25 24.0040000  0 10                     
G12  21541377.359   113200697.783         580.944          48.000    21541375.706    88208325.717         452.690          45.000  
G15  25754320.829   135339867.975       -4545.754          44.000    25754321.716   105459666.994       -3542.258          39.000  
G25  24253739.902   127454261.738        2423.975          47.000    24253742.489    99315027.860        1888.980          43.000  
G14  26175908.394   137555330.194        2423.385          37.000                                                                  
G 6  25500636.276   134006749.936        1794.137          43.000    25500639.166   104420914.036        1397.975          39.000  
G17  24691067.693   129752432.324       -3350.062          45.000    24691066.048   101105785.042       -2610.400          41.000  
G19  22947863.848   120591839.964       -2239.560          43.000                                                                  
G24  21643850.678   113739204.527       -1907.978          48.000    21643851.933    88627957.795       -1486.763          46.000  
G32  24566884.106   129099841.539        1719.009          42.000    24566886.873   100597293.296        1339.821          41.000  
G 2  26598130.133   139774086.975        2132.244          37.000                                                                  
> 2019  5 23  8 25 25.0040000  0 10                     
G12  21541266.752   113200117.074         580.385          48.000    21541265.147    88207873.218         452.262          45.000  
G15  25755185.844   135344413.786       -4545.768          45.000    25755186.823   105463209.166       -3542.115          39.000  
G25  24253278.661   127451837.828        2423.763          47.000    24253281.259    99313139.118        1888.456          43.000  
G14  26175447.299   137552906.938        2423.079          37.000                                                                  
G 6  25500294.773   134004955.884        1793.802          43.000    25500297.797   104419516.062        1397.891          39.000  
G17  24691705.263   129755782.542       -3350.410          45.000    24691703.553   101108395.600       -2610.669          41.000  
G19  22948290.175   120594079.985       -2240.402          43.000                                                                  
G24  21644213.853   113741112.680       -1908.510          48.000    21644215.047    88629444.664       -1487.024          46.000  
G32  24566556.926   129098122.413        1718.802          42.000    24566559.697   100595953.727        1339.354          41.000  
G 2  26597724.338   139771954.292        2132.576          37.000                                                                  
> 2019  5 23  8 25 26.0040000  0 10                     
G12  21541156.209   113199536.734         579.710          48.000    21541154.683    88207421.007         451.577          45.000  
G15  25756050.881   135348959.521       -4546.211          45.000    25756051.837   105466751.287       -3542.036          39.000  
G25  24252817.355   127449414.054        2423.351          47.000    24252820.083    99311250.453        1888.300          43.000  
G14  26174986.203   137550483.789        2422.917          37.000                                                                  
G 6  25499953.391   134003162.034        1793.231          43.000    25499956.338   104418118.275        1397.169          39.000  
G17  24692342.831   129759133.019       -3350.978          45.000    24692341.085   101111006.354       -2611.068          41.000  
G19  22948716.566   120596320.548       -2241.190          43.000                                                                  
G24  21644577.040   113743021.207       -1909.116          48.000    21644578.167    88630931.836       -1487.822          46.000  
G32  24566229.903   129096403.632        1717.863          42.000    24566232.607   100594614.416        1338.738          41.000  
G 2  26597318.502   139769821.518        2132.368          37.000                                                                  
> 2019  5 23  8 25 27.0040000  0 10                     
G12  21541045.877   113198956.950         579.540          48.000    21541044.300    88206969.220         451.685          45.000  
G15  25756915.880   135353505.346       -4545.880          45.000    25756916.877   105470293.510       -3542.474          39.000  
G25  24252356.240   127446990.572        2423.312          47.000    24252358.817    99309362.023        1888.364          43.000  
G14  26174525.169   137548060.927        2422.985          37.000                                                                  
G 6  25499612.110   134001368.578        1793.247          43.000    25499615.002   104416720.778        1397.289          39.000  
G17  24692980.340   129762483.939       -3351.080          45.000    24692978.768   101113617.469       -2611.218          41.000  
G19  22949143.066   120598561.864       -2241.683          43.000                                                                  
G24  21644940.340   113744930.292       -1909.339          48.000    21644941.415    88632419.433       -1487.837          46.000  
G32  24565902.987   129094685.350        1718.016          42.000    24565905.728   100593275.491        1338.725          41.000  
G 2  26596912.720   139767688.811        2132.740          37.000                                                                  
> 2019  5 23  8 25 28.0040000  0 10                     
G12  21540935.531   113198377.608         578.995          48.000    21540934.091    88206517.793         451.189          45.000  
G15  25757780.959   135358051.163       -4545.797          45.000    25757781.925   105473835.695       -3542.305          39.000  
G25  24251895.128   127444567.278        2423.060          47.000    24251897.620    99307473.751        1888.038          43.000  
G14  26174064.120   137545638.274        2422.389          37.000                                                                  
G 6  25499270.842   133999575.409        1792.961          43.000    25499273.799   104415323.505        1397.053          39.000  
G17  24693618.062   129765835.197       -3351.496          45.000    24693616.504   101116228.833       -2611.653          41.000  
G19  22949569.614   120600803.796       -2242.266          44.000                                                                  
G24  21645303.637   113746839.815       -1909.890          48.000    21645304.775    88633907.368       -1488.259          46.000  
G32  24565576.202   129092967.497        1717.583          42.000    24565578.885   100591936.922        1338.223          41.000  
G 2  26596506.880   139765556.088        2132.441          37.000                                                                  
> 2019  5 23  8 25 29.0040000  0 10                     
G12  21540825.342   113197798.748         578.662          48.000    21540823.921    88206066.733         450.984          45.000  
G15  25758645.953   135362597.013       -4545.771          45.000    25758646.984   105477377.909       -3541.815          39.000  
G25  24251434.057   127442144.213        2423.057          47.000    24251436.490    99305585.643        1888.163          43.000  
G14  26173603.268   137543215.829        2422.277          37.000                                                                  
G 6  25498929.710   133997782.582        1792.612          43.000    25498932.594   104413926.481        1397.106          39.000  
G17  24694255.788   129769186.814       -3351.690          45.000    24694254.252   101118840.479       -2611.707          41.000  
G19  22949996.370   120603046.405       -2242.956          44.000                                                                  
G24  21645667.066   113748749.822       -1910.156          48.000    21645668.186    88635395.681       -1488.396          46.000  
G32  24565249.365   129091250.085        1717.230          42.000    24565252.158   100590598.673        1338.192          41.000  
G 2  26596100.872   139763423.324        2133.214          37.000                                                                  
> 2019  5 23  8 25 30.0040000  0 10                     
G12  21540715.230   113197220.450         577.804          48.000    21540713.952    88205616.103         450.339          45.000  
G15  25759510.994   135367142.974       -4546.272          45.000    25759512.133   105480920.218       -3542.576          39.000  
G25  24250972.956   127439721.454        2422.339          47.000    24250975.495    99303697.779        1887.624          43.000  
G14  26173142.288   137540793.656        2421.903          37.000                                                                  
G 6  25498588.556   133995990.137        1792.237          43.000    25498591.505   104412529.806        1396.338          39.000  
G17  24694893.613   129772538.868       -3352.313          45.000    24694892.208   101121452.479       -2612.375          41.000  
G19  22950423.303   120605289.734       -2244.062          44.000                                                                  
G24  21646030.736   113750660.384       -1911.061          48.000    21646031.771    88636884.430       -1489.038          46.000  
G32  24564922.670   129089533.209        1716.271          42.000    24564925.509   100589260.836        1337.549          41.000  
G 2  26595695.183   139761290.686        2132.216          37.000                                                                  
> 2019  5 23  8 25 31.0040000  0 10                     
G12  21540605.274   113196642.654         577.533          47.000    21540603.989    88205165.884         450.008          45.000  
G15  25760376.077   135371688.958       -4545.868          45.000    25760377.259   105484462.561       -3542.463          39.000  
G25  24250511.969   127437298.926        2422.359          47.000    24250514.433    99301810.101        1887.608          43.000  
G14  26172681.442   137538371.732        2421.900          38.000                                                                  
G 6  25498247.495   133994198.050        1791.895          43.000    25498250.473   104411133.347        1396.368          39.000  
G17  24695531.545   129775891.315       -3352.575          45.000    24695530.118   101124064.772       -2612.469          41.000  
G19  22950850.269   120607533.738       -2244.209          44.000                                                                  
G24  21646394.424   113752571.445       -1911.421          48.000    21646395.428    88638373.570       -1489.387          46.000  
G32  24564596.050   129087816.781        1716.023          42.000    24564598.933   100587923.373        1337.381          41.000  
G 2  26595289.325   139759158.060        2132.096          37.000                                                                  
> 2019  5 23  8 25 32.0040000  0 10                     
G12  21540495.400   113196065.395         576.863          47.000    21540494.140    88204716.065         449.527          45.000  
G15  25761241.108   135376235.042       -4546.335          45.000    25761242.383   105488004.962       -3542.750          38.000  
G25  24250051.129   127434876.696        2422.144          47.000    24250053.515    99299922.652        1887.363          43.000  
G14  26172220.620   137535950.098        2421.228          37.000                                                                  
G 6  25497906.561   133992406.347        1791.265          43.000    25497909.584   104409737.221        1395.708          39.000  
G17  24696169.580   129779244.191       -3353.275          45.000    24696168.098   101126677.387       -2612.652          41.000  
G19  22951277.550   120609778.490       -2245.199          44.000                                                                  
G24  21646758.193   113754483.068       -1911.952          48.000    21646759.187    88639863.147       -1489.833          46.000  
G32  24564269.543   129086100.871        1715.542          42.000    24564272.400   100586586.296        1336.594          41.000  
G 2  26594883.462   139757025.464        2132.655          37.000                                                                  
> 2019  5 23  8 25 33.0040000  0 10                     
G12  21540385.612   113195488.299         576.731          47.000    21540384.305    88204266.377         449.582          45.000  
G15  25762106.094   135380780.837       -4545.913          45.000    25762107.388   105491547.105       -3541.996          39.000  
G25  24249590.089   127432454.384        2422.047          47.000    24249592.475    99298035.142        1887.294          43.000  
G14  26171759.715   137533528.339        2421.996          37.000                                                                  
G 6  25497565.600   133990614.643        1791.304          43.000    25497568.733   104408341.085        1396.173          39.000  
G17  24696807.688   129782597.123       -3353.311          45.000    24696806.296   101129290.061       -2612.905          41.000  
G19  22951704.788   120612023.594       -2245.663          44.000                                                                  
G24  21647122.003   113756394.863       -1912.104          48.000    21647123.153    88641352.863       -1489.960          46.000  
G32  24563943.083   129084385.089        1715.615          42.000    24563945.948   100585249.335        1336.613          41.000  
G 2  26594477.574   139754892.583        2132.745          37.000                                                                  
> 2019  5 23  8 25 34.0040000  0 10                     
G12  21540275.835   113194911.610         576.316          47.000    21540274.465    88203817.012         449.163          45.000  
G15  25762971.107   135385326.576       -4545.889          45.000    25762972.467   105495089.255       -3542.159          39.000  
G25  24249129.185   127430032.213        2421.927          47.000    24249131.614    99296147.736        1887.237          43.000  
G14  26171298.953   137531106.752        2421.109          37.000                                                                  
G 6  25497224.678   133988823.183        1791.412          43.000    25497227.753   104406945.166        1395.709          39.000  
G17  24697445.688   129785950.334       -3353.516          45.000    24697444.460   101131902.956       -2613.099          41.000  
G19  22952132.150   120614269.258       -2245.937          44.000                                                                  
G24  21647485.941   113758307.050       -1912.581          48.000    21647487.046    88642842.874       -1490.241          46.000  
G32  24563616.751   129082669.692        1715.163          42.000    24563619.432   100583912.655        1336.419          41.000  
G 2  26594071.551   139752759.628        2132.456          37.000                                                                  
> 2019  5 23  8 25 35.0040000  0 10                     
G12  21540166.190   113194335.601         575.606          47.000    21540164.808    88203368.176         448.615          45.000  
G15  25763836.240   135389872.541       -4546.164          45.000    25763837.596   105498631.574       -3542.482          39.000  
G25  24248668.225   127427610.472        2421.417          47.000    24248670.819    99294260.658        1886.932          43.000  
G14  26170838.205   137528685.568        2421.040          37.000                                                                  
G 6  25496883.821   133987032.262        1790.815          43.000    25496886.983   104405549.640        1395.364          39.000  
G17  24698083.897   129789304.116       -3353.992          45.000    24698082.677   101134516.292       -2613.347          41.000  
G19  22952559.715   120616515.796       -2246.918          44.000                                                                  
G24  21647849.863   113760219.926       -1913.086          48.000    21647851.012    88644333.425       -1490.766          46.000  
G32  24563290.507   129080954.914        1714.600          42.000    24563293.203   100582576.470        1335.848          41.000  
G 2  26593665.649   139750626.822        2132.990          37.000                                                                  
> 2019  5 23  8 25 36.0040000  0 10                     
G12  21540056.701   113193760.270         575.151          47.000    21540055.403    88202919.866         448.149          45.000  
G15  25764701.354   135394418.739       -4546.243          45.000    25764702.762   105502174.066       -3542.557          39.000  
G25  24248207.457   127425189.144        2421.148          47.000    24248210.019    99292373.922        1886.592          43.000  
G14  26170377.578   137526264.779        2420.715          37.000                                                                  
G 6  25496543.158   133985241.860        1790.117          42.000    25496546.268   104404154.501        1395.336          39.000  
G17  24698722.229   129792658.477       -3354.456          45.000    24698720.979   101137130.081       -2613.769          41.000  
