     3.00           OBSERVATION DATA    G: GPS              RINEX VERSION / TYPE
RTKCONV 2.4.3 b32                       20200214 172927 UTC PGM / RUN BY / DATE 
log: C:\Users\lis4hi\Desktop\bosch\MatlabCode\KF&WLS\Data\  COMMENT             
format: u-blox                                              COMMENT             
                                                            MARKER NAME         
                                                            MARKER NUMBER       
                                                            MARKER TYPE         
                                                            OBSERVER / AGENCY   
                                                            REC # / TYPE / VERS 
                                                            ANT # / TYPE        
  3866764.2578   674225.5378  5010793.8482                  APPROX POSITION XYZ 
        0.0000        0.0000        0.0000                  ANTENNA: DELTA H/E/N
G    8 C1C L1C D1C S1C C2L L2L D2L S2L                      SYS / # / OBS TYPES 
  2019     5    23     8    49   52.9930000     GPS         TIME OF FIRST OBS   
  2019     5    23     9     8   46.9940000     GPS         TIME OF LAST OBS    
                                                            END OF HEADER       
> 2019  5 23  8 49 52.9930000  0  9                     
G 6  21444339.127   112690764.178         998.246          44.000    21444341.151    87810998.572         777.596          37.000  
G12  17846918.409    93786187.445        -341.973          49.000    17846916.413    73080135.344        -266.592          45.000  
G17  22062669.022   115940122.871       -4004.115          42.000    22062665.831    90342934.2801      -3120.545          32.000  
G19  20070399.461   105470652.761       -3334.370          43.000                                                                  
G24  18642318.860    97966040.954       -2799.811          49.000    18642321.268    76337177.044       -2181.665          48.000  
G25  19995058.996   105074743.272        1838.231          48.000    19995060.885    81876431.814        1432.652          44.000  
G32  20554495.711   108014608.144         767.313          45.000    20554496.735    84167224.757         597.960          42.000  
G 2  22379974.472   117607576.093        1819.252          36.000                                                                  
G14  21920189.107   115191390.806        1800.217          38.000                                                                  
> 2019  5 23  8 49 53.9930000  0  9                     
G 6  21444149.211   112689766.409         997.079          44.000    21444151.266    87810221.068         777.221          37.000  
G12  17846983.535    93786529.845        -343.095          49.000    17846981.593    73080402.137        -267.268          45.000  
G17  22063431.092   115944127.709       -4004.963          42.000    22063428.004    90346054.894       -3120.762          32.000  
G19  20071034.040   105473987.557       -3335.117          43.000                                                                  
G24  18642851.768    97968841.067       -2800.677          49.000    18642854.107    76339358.952       -2182.306          48.000  
G25  19994709.104   105072905.260        1837.413          47.000    19994711.091    81874999.602        1431.950          44.000  
G32  20554349.844   108013841.226         766.238          45.000    20554350.932    84166627.170         596.957          42.000  
G 2  22379628.338   117605757.181        1818.971          36.000                                                                  
G14  21919846.545   115189590.907        1799.480          38.000                                                                  
> 2019  5 23  8 49 54.9930000  0  9                     
G 6  21443959.553   112688769.771         995.927          44.000    21443961.667    87809444.471         776.178          37.000  
G12  17847048.991    93786873.383        -344.046          49.000    17847046.891    73080669.836        -268.207          45.000  
G17  22064193.253   115948133.427       -4005.839          42.000    22064190.364                       -3121.634          32.000  
G19  20071668.919   105477323.559       -3336.308          43.000                                                                  
G24  18643384.777    97971642.282       -2801.758          50.000    18643387.265    76341541.713       -2183.209          48.000  
G25  19994359.470   105071068.196        1836.546          48.000    19994361.597    81873568.130        1431.107          44.000  
G32  20554204.228   108013075.521         765.177          45.000    20554205.205    84166030.502         596.093          41.000  
G 2  22379282.292   117603939.119        1817.794          36.000                                                                  
G14  21919504.211   115187792.020        1798.361          38.000                                                                  
> 2019  5 23  8 49 55.9930000  0  9                     
G 6  21443770.157   112687774.393         994.626          44.000    21443772.325    87808668.859         775.207          37.000  
G12  17847114.626    93787218.224        -345.627          49.000    17847112.462    73080938.546        -269.453          45.000  
G17  22064955.711   115952140.236       -4007.607          42.000    22064953.152    90352298.460       -3123.108          32.000  
G19  20072304.018   105480660.928       -3338.223          43.000                                                                  
G24  18643918.038    97974444.768       -2803.229          50.000    18643920.626    76343725.476       -2184.393          48.000  
G25  19994010.094   105069232.237        1835.309          48.000    19994012.205    81872137.508        1430.146          44.000  
G32  20554058.774   108012311.190         763.531          45.000    20554059.715    84165434.934         594.941          42.000  
G 2  22378936.481   117602121.989        1816.578          35.000                                                                  
G14  21919162.161   115185994.306        1796.687          37.000                                                                  
> 2019  5 23  8 49 56.9930000  0  9                     
G 6  21443581.003   112686780.324         993.669          44.000    21443583.258    87807894.265         774.415          38.000  
G12  17847180.379    93787564.364        -346.620          49.000    17847178.319    73081208.271        -270.321          45.000  
G17  22065718.331   115956148.064       -4008.357          42.000    22065715.762    90355421.412       -3123.543          32.000  
G19  20072939.410   105483999.639       -3339.196          43.000                                                                  
G24  18644451.444    97977248.480       -2804.205          50.000    18644454.099    76345910.182       -2185.046          48.000  
G25  19993660.905   105067397.382        1834.492          48.000    19993663.145    81870707.748        1429.550          44.000  
G32  20553913.619   108011548.248         762.482          45.000    20553914.527    84164840.425         594.125          41.000  
G 2  22378590.850   117600305.807        1816.284          36.000                                                                  
G14  21918820.304   115184197.733        1796.071          37.000                                                                  
> 2019  5 23  8 49 57.9930000  0  9                     
G 6  21443391.972   112685787.123         992.489          44.000    21443394.298    87807120.336         773.479          38.000  
G12  17847246.442    93787911.389        -347.848          49.000    17847244.315    73081478.676        -271.069          45.000  
G17  22066481.116   115960156.518       -4009.055          42.000    22066478.537    90358544.889       -3124.096          32.000  
G19  20073574.861   105487339.260       -3340.108          43.000                                                                  
G24  18644985.067    97980052.996       -2805.151          50.000    18644987.914    76348095.532       -2186.017          48.000  
G25  19993311.835   105065563.202        1833.742          48.000    19993314.117    81869278.522        1428.936          44.000  
G32  20553768.601   108010786.242         761.305          45.000    20553769.589    84164246.659         593.237          42.000  
G 2  22378245.305   117598490.202        1815.019          36.000                                                                  
G14  21918478.555   115182401.904        1795.220          38.000                                                                  
> 2019  5 23  8 49 58.9930000  0  9                     
G 6  21443203.229   112684795.012         991.396          44.000    21443205.494    87806347.256         772.932          37.000  
G12  17847312.719    93788259.521        -348.639          49.000    17847310.578    73081749.950        -271.740          45.000  
G17  22067244.139   115964165.846       -4009.933          42.000    22067241.541    90361669.034       -3124.750          32.000  
G19  20074210.551   105490680.067       -3341.405          43.000                                                                  
G24  18645518.871    97982858.579       -2806.158          50.000    18645521.885    76350281.693       -2186.652          48.000  
G25  19992963.067   105063729.930        1832.793          47.000    19992965.233    81867850.007        1428.294          44.000  
G32  20553623.737   108010025.423         760.219          45.000    20553624.778    84163653.809         592.502          42.000  
G 2  22377899.904   117596675.381        1814.142          35.000                                                                  
G14  21918137.012   115180607.043        1794.428          38.000                                                                  
> 2019  5 23  8 49 59.9930000  0  9                     
G 6  21443014.568   112683803.660         991.044          44.000    21443016.851    87805574.798         772.136          38.000  
G12  17847379.196    93788608.439        -349.261          49.000    17847376.804    73082021.826        -272.090          45.000  
G17  22068007.200   115968175.689       -4009.857          42.000    22068004.709    90364793.581       -3124.568          32.000  
G19  20074846.408   105494021.688       -3342.091          43.000                                                                  
G24  18646052.915    97985664.905       -2806.641          49.000    18646055.849    76352468.440       -2187.036          48.000  
G25  19992614.277   105061897.238        1832.437          47.000    19992616.418    81866421.947        1427.711          44.000  
G32  20553479.101   108009265.461         759.591          45.000    20553480.232    84163061.633         591.982          42.000  
G 2  22377554.602   117594860.934        1814.309          35.000                                                                  
G14  21917795.470   115178812.811        1794.426          38.000                                                                  
> 2019  5 23  8 50  0.9930000  0  9                     
G 6  21442826.077   112682812.920         990.165          44.000    21442828.451    87804802.782         771.900          38.000  
G12  17847445.721    93788957.968        -350.060          49.000    17847443.381    73082294.188        -272.784          45.000  
G17  22068770.317   115972185.909       -4010.515          42.000    22068767.821    90367918.464       -3125.936          32.000  
G19  20075482.469   105497363.971       -3342.765          44.000                                                                  
G24  18646587.107    97988471.835       -2807.397          49.000    18646589.900    76354655.652       -2187.598          48.000  
G25  19992265.645   105060064.963        1831.730          47.000    19992267.749    81864994.209        1427.116          43.000  
G32  20553334.590   108008506.197         758.650          45.000    20553335.838    84162470.001         591.222          42.000  
G 2  22377209.410   117593046.778        1813.785          35.000                                                                  
G14  21917454.286   115177019.094        1793.248          37.000                                                                  
> 2019  5 23  8 50  1.9930000  0  9                     
G 6  21442637.595   112681822.600         990.098          44.000    21442640.061    87804031.095         771.815          38.000  
G12  17847512.398    93789307.932        -350.262          49.000    17847510.055    73082566.899        -273.054          45.000  
G17  22069533.461   115976196.334       -4010.877          42.000    22069531.039    90371043.428       -3125.373          32.000  
G19  20076118.527   105500706.737       -3343.094          44.000                                                                  
G24  18647121.307    97991279.141       -2807.611          49.000    18647124.198    76356843.167       -2187.793          48.000  
G25  19991916.992   105058232.935        1831.729          47.000    19991919.113    81863566.646        1427.271          44.000  
G32  20553190.212   108007747.427         758.467          45.000    20553191.480    84161878.760         590.950          42.000  
G 2  22376864.167   117591232.744        1813.188          36.000                                                                  
G14  21917113.043   115175225.651        1793.179          38.000                                                                  
> 2019  5 23  8 50  2.9930000  0  9                     
G 6  21442449.354   112680832.772         989.698          44.000    21442451.797    87803259.817         771.401          38.000  
G12  17847579.037    93789658.412        -350.760          49.000    17847576.725    73082839.991        -273.237          45.000  
G17  22070296.717   115980206.976       -4010.807          42.000    22070294.261    90374168.612       -3124.967          32.000  
G19  20076754.758   105504050.063       -3343.465          43.000                                                                  
G24  18647655.547    97994086.922       -2808.093          49.000    18647658.484    76359031.046       -2188.013          48.000  
G25  19991568.480   105056401.197        1831.647          47.000    19991570.521    81862139.323        1427.138          44.000  
G32  20553045.939   108006989.256         757.761          45.000    20553047.251    84161287.971         590.517          42.000  
G 2  22376518.984   117589418.839        1813.647          36.000                                                                  
G14  21916771.738   115173432.584        1792.861          38.000                                                                  
> 2019  5 23  8 50  3.9930000  0  9                     
G 6  21442261.092   112679843.407         989.264          44.000    21442263.487    87802488.877         770.743          38.000  
G12  17847645.844    93790009.350        -351.210          49.000    17847643.501    73083113.446        -273.726          45.000  
G17  22071059.941   115984217.843       -4010.991          42.000    22071057.643    90377293.985       -3125.971          33.000  
G19  20077391.036   105507393.892       -3343.913          43.000                                                                  
G24  18648189.926    97996895.114       -2808.459          50.000    18648192.828    76361219.243       -2188.245          48.000  
G25  19991219.963   105054569.732        1831.504          48.000    19991221.969    81860712.202        1426.958          44.000  
G32  20552901.745   108006231.646         757.244          45.000    20552903.091    84160697.593         590.279          42.000  
G 2  22376173.800   117587605.080        1813.567          36.000                                                                  
G14  21916430.593   115171639.829        1792.219          38.000                                                                  
> 2019  5 23  8 50  4.9930000  0  9                     
G 6  21442072.761   112678854.108         989.117          45.000    21442075.331    87801717.987         770.942          38.000  
G12  17847712.727    93790360.396        -351.250          49.000    17847710.322    73083386.988        -273.793          45.000  
G17  22071823.218   115988228.570       -4011.043          42.000    22071820.962    90380419.208       -3125.571          33.000  
G19  20078027.448   105510737.888       -3343.926          43.000                                                                  
G24  18648724.362    97999703.374       -2808.368          50.000    18648727.182    76363407.503       -2188.349          48.000  
G25  19990871.405   105052738.173        1831.591          48.000    19990873.486    81859285.017        1426.993          44.000  
G32  20552757.624   108005474.161         757.441          44.000    20552759.006    84160107.351         589.982          42.000  
G 2  22375828.552   117585791.060        1813.895          36.000                                                                  
G14  21916089.439   115169847.092        1792.693          40.000                                                                  
> 2019  5 23  8 50  5.9930000  0  9                     
G 6  21441884.545   112677865.215         988.623          44.000    21441887.249    87800947.405         770.747          38.000  
G12  17847779.652    93790711.842        -351.798          49.000    17847777.217    73083660.849        -273.976          45.000  
G17  22072586.462   115992239.469       -4011.368          42.000    22072584.452    90383544.543       -3125.356          33.000  
G19  20078663.832   105514082.324       -3344.614          43.000                                                                  
G24  18649258.839    98002512.004       -2808.868          50.000    18649261.647    76365596.061       -2188.947          48.000  
G25  19990522.944   105050906.841        1830.829          46.000    19990524.912    81857858.004        1426.535          45.000  
G32  20552613.607   108004717.155         756.951          45.000    20552614.854    84159517.522         589.484          40.000  
G 2  22375483.472   117583977.131        1813.989          36.000                                                                  
G14  21915748.428   115168054.554        1792.740          41.000                                                                  
> 2019  5 23  8 50  6.9930000  0  9                     
G 6  21441696.490   112676876.812         988.048          44.000    21441699.161    87800177.248         769.774          38.000  
G12  17847846.588    93791063.799        -352.367          49.000    17847844.225    73083935.089        -274.646          45.000  
G17  22073349.727   115996250.590       -4011.667          42.000    22073347.902    90386670.100       -3126.160          33.000  
G19  20079300.487   105517427.320       -3345.383          43.000                                                                  
G24  18649793.324    98005321.079       -2809.436          50.000    18649796.216    76367784.943       -2189.075          48.000  
G25  19990174.541   105049075.781        1830.478          47.000    19990176.483    81856431.198        1426.647          43.000  
G32  20552469.616   108003960.748         756.133          45.000    20552470.954    84158928.089         589.162          41.000  
G 2  22375138.326   117582163.344        1813.433          37.000                                                                  
G14  21915407.332   115166262.412        1791.617          40.000                                                                  
> 2019  5 23  8 50  7.9930000  0  9                     
G 6  21441508.744   112675889.760         985.195          43.000    21441511.262    87799408.108         767.207          39.000  
G12  17847913.768    93791417.104        -355.372          49.000    17847911.465    73084210.406        -276.962          45.000  
G17  22074113.235   116000262.843       -4014.430          41.000    22074111.597    90389796.442       -3127.032          33.000  
G19  20079937.268   105520773.712       -3348.477          43.000                                                                  
G24  18650328.076    98008131.470       -2812.329          50.000    18650331.059    76369974.850       -2191.412          47.000  
G25  19989826.292   105047245.875        1827.767          47.000    19989828.326    81855005.303        1424.290          43.000  
G32  20552326.016   108003205.813         752.397          44.000    20552327.245    84158339.780         586.910          41.000  
G 2  22374793.322   117580350.611        1810.531          38.000                                                                  
G14  21915066.547   115164471.507        1788.861          40.000                                                                  
> 2019  5 23  8 50  8.9930000  0  9                     
G 6  21441320.999   112674902.973         987.358          43.000    21441323.554    87798639.212         769.104          39.000  
G12  17847981.084    93791770.710        -352.847          49.000    17847978.735    73084485.940        -275.010          45.000  
G17  22074876.752   116004275.102       -4010.905          41.000    22074875.527    90392922.926       -3125.714          32.000  
G19  20080574.034   105524120.478       -3346.275          43.000                                                                  
G24  18650862.820    98010942.123       -2809.967          50.000    18650865.848    76372164.966       -2189.825          47.000  
G25  19989478.129   105045416.088        1830.513          48.000    19989480.138    81853579.502        1426.134          43.000  
G32  20552182.435   108002451.190         755.069          45.000    20552183.734    84157751.790         588.565          41.000  
G 2  22374448.399   117578537.811        1813.197          38.000                                                                  
G14  21914725.816   115162680.751        1791.132          42.000                                                                  
> 2019  5 23  8 50  9.9930000  0  9                     
G 6  21441133.278   112673916.352         985.126          43.000    21441135.849    87797870.362         767.790          39.000  
G12  17848048.425    93792124.477        -355.471          49.000    17848045.984    73084761.591        -276.967          45.000  
G17  22075640.263   116008287.313       -4013.957          43.000    22075639.249                       -3127.698          31.000  
G19  20081210.880   105527467.402       -3348.300          43.000                                                                  
G24  18651397.708    98013752.824       -2812.402          50.000    18651400.772    76374355.120       -2191.260          47.000  
G25  19989129.894   105043586.225        1828.487          47.000    19989132.001    81852153.631        1424.830          43.000  
G32  20552038.888   108001696.819         752.481          45.000    20552040.212    84157163.990         586.493          41.000  
G 2  22374103.409   117576724.811        1811.154          38.000                                                                  
G14  21914385.037   115160890.018        1788.745          36.000                                                                  
> 2019  5 23  8 50 10.9930000  0  9                     
G 6  21440945.729   112672930.695         986.153          43.000    21440948.270    87797102.329         768.517          40.000  
G12  17848115.930    93792479.221        -353.754          49.000    17848113.595    73085038.028        -275.746          45.000  
G17  22076404.027   116012300.253       -4012.033          40.000    22076402.972                       -3126.490          30.000  
G19  20081847.920   105530815.423       -3347.633          44.000                                                                  
G24  18651932.748    98016564.489       -2810.840          49.000    18651935.780    76376546.036       -2190.179          47.000  
G25  19988781.903   105041757.178        1830.046          47.000    19988784.031    81850728.413        1425.871          43.000  
G32  20551895.653   108000943.506         754.448          45.000    20551896.841    84156576.978         587.620          41.000  
G 2  22373758.686   117574912.482        1812.922          38.000                                                                  
G14  21914044.362   115159100.160        1790.505          37.000                                                                  
> 2019  5 23  8 50 11.9930000  0  9                     
G 6  21440758.089   112671944.399         986.089          44.000    21440760.722    87796333.797         768.260          39.000  
G12  17848183.365    93792833.356        -354.331          49.000    17848181.061    73085313.958        -275.875          45.000  
G17  22077167.467   116016312.290       -4012.053          41.000    22077166.500    90402302.610       -3126.665          31.000  
G19  20082484.880   105534162.820       -3347.662          44.000                                                                  
G24  18652467.586    98019375.515       -2811.212          49.000    18652470.595    76378736.447       -2190.405          47.000  
G25  19988433.772   105039927.315        1829.400          47.000    19988435.752    81849302.527        1425.790          43.000  
G32  20551752.023   108000189.682         753.340          45.000    20551753.466    84155989.584         587.334          42.000  
G 2  22373413.582   117573099.159        1812.969          38.000                                                                  
G14  21913703.494   115157309.442        1790.482          38.000                                                                  
> 2019  5 23  8 50 12.9930000  0  9                     
G 6  21440570.479   112670958.619         985.571          43.000    21440573.156    87795565.652         767.936          39.000  
G12  17848250.785    93793188.001        -354.840          49.000    17848248.634    73085590.322        -276.727          45.000  
G17  22077930.975   116020324.582       -4012.291          45.000    22077930.637    90405428.974       -3127.263          33.000  
G19  20083122.000   105537510.799       -3348.497          44.000                                                                  
G24  18653002.575    98022187.029       -2811.841          49.000    18653005.629    76380927.238       -2191.071          47.000  
G25  19988085.632   105038097.763        1829.476          47.000    19988087.548    81847876.913        1425.605          43.000  
G32  20551608.651   107999436.413         752.680          45.000    20551610.088    84155402.627         586.561          41.000  
G 2  22373068.568   117571286.028        1813.129          38.000                                                                  
G14  21913362.733   115155519.236        1789.921          39.000                                                                  
> 2019  5 23  8 50 13.9930000  0  9                     
G 6  21440383.010   112669973.497         984.550          43.000    21440385.769    87794798.022         767.069          39.000  
G12  17848318.431    93793543.306        -355.673          49.000    17848316.245    73085867.174        -277.169          45.000  
G17  22078694.452   116024337.291       -4012.921          42.000    22078694.230                       -3127.835          30.000  
G19  20083759.232   105540859.489       -3349.484          44.000                                                                  
G24  18653537.763    98024999.146       -2812.531          49.000    18653540.791    76383118.495       -2191.687          47.000  
G25  19987737.483   105036268.669        1828.838          46.000    19987739.495    81846451.644        1424.946          43.000  
G32  20551465.402   107998683.879         752.041          45.000    20551466.827    84154816.252         585.782          41.000  
G 2  22372723.660   117569473.220        1812.449          38.000                                                                  
G14  21913022.078   115153729.430        1789.484          38.000                                                                  
> 2019  5 23  8 50 14.9930000  0  9                     
G 6  21440195.741   112668989.038         984.002          44.000    21440198.545    87794030.960         766.188          39.000  
G12  17848386.198    93793899.312        -356.380          49.000    17848383.961    73086144.586        -277.774          45.000  
G17  22079458.155   116028350.528       -4014.714          37.000    22079458.066                       -3126.544          23.000  
G19  20084396.565   105544208.888       -3349.510          43.000                                                                  
G24  18654073.016    98027811.921       -2813.135          49.000    18654076.097    76385310.260       -2191.974          47.000  
G25  19987389.410   105034440.085        1828.090          46.000    19987391.530    81845026.776        1424.752          43.000  
G32  20551322.341   107997932.145         751.202          45.000    20551323.724    84154230.465         585.304          41.000  
G 2  22372378.782   117567660.761        1812.385          38.000                                                                  
G14  21912681.629   115151940.241        1788.970          39.000                                                                  
> 2019  5 23  8 50 15.9930000  0  9                     
G 6  21440008.510   112668005.371         983.266          44.000    21440011.479    87793264.427         765.926          39.000  
G12  17848454.119    93794256.172        -357.335          49.000    17848451.918    73086422.666        -278.630          45.000  
G17  22080221.920   116032364.277       -4013.528          43.000    22080221.842                       -3129.351          33.000  
G19  20085034.189   105547559.321       -3351.160          44.000                                                                  
G24  18654608.399    98030625.541       -2814.294          49.000    18654611.493    76387502.691       -2192.883          47.000  
G25  19987041.530   105032612.130        1827.769          46.000    19987043.739    81843602.407        1424.182          44.000  
G32  20551179.465   107997181.341         749.970          44.000    20551180.951    84153645.430         584.356          41.000  
G 2  22372034.036   117565848.872        1811.418          38.000                                                                  
G14  21912341.276   115150151.758        1787.955          39.000                                                                  
> 2019  5 23  8 50 16.9930000  0  9                     
G 6  21439821.447   112667022.793         981.543          44.000    21439824.561    87792498.758         765.266          38.000  
G12  17848522.159    93794614.052        -359.177          49.000    17848519.875    73086701.516        -279.861          45.000  
G17  22080985.948   116036378.767       -4015.564          36.000    22080985.780                       -3129.896          28.000  
G19  20085671.887   105550910.662       -3352.090          43.000                                                                  
G24  18655144.034    98033440.124       -2815.875          49.000    18655146.915    76389695.872       -2194.348          47.000  
G25  19986693.917   105030785.008        1826.097          47.000    19986696.013    81842178.663        1423.012          44.000  
G32  20551036.802   107996431.608         748.318          44.000    20551038.279    84153061.239         582.980          42.000  
G 2  22371689.324   117564037.630        1809.619          36.000                                                                  
G14  21912001.150   115148364.175        1786.577          39.000                                                                  
> 2019  5 23  8 50 17.9930000  0  9                     
G 6  21439634.852   112666042.421         980.564          43.000    21439637.979    87791734.843         764.221          38.000  
G12  17848590.629    93794974.145        -360.177          50.000    17848588.405    73086982.120        -280.649          46.000  
G17  22081750.329   116040395.398       -4015.743          38.000    22081750.204                       -3129.116          28.000  
G19  20086310.119   105554264.326       -3353.844          43.000                                                                  
G24  18655680.063    98036256.877       -2816.638          50.000    18655682.847    76391890.750       -2194.873          47.000  
G25  19986346.544   105028959.921        1825.115          47.000    19986348.750    81840756.502        1422.325          44.000  
G32  20550894.645   107995684.192         747.439          44.000    20550896.034    84152478.812         582.334          41.000  
G 2  22371345.022   117562228.163        1809.596          38.000                                                                  
G14  21911661.346   115146578.618        1785.473          38.000                                                                  
> 2019  5 23  8 50 18.9930000  0  9                     
G 6  21439448.091   112665061.309         982.451          44.000    21439451.291    87790970.444         762.935          34.000  
G12  17848659.002    93795333.572        -359.079          49.000    17848656.823    73087262.196        -279.602          45.000  
G17  22082514.498   116044410.905       -4015.512          39.000    22082514.328                       -3129.122          29.000  
G19  20086948.110   105557617.353       -3351.899          40.000                                                                  
G24  18656215.947    98039072.919       -2815.625          50.000    18656218.706    76394085.072       -2193.982          47.000  
G25  19985999.041   105027133.970        1826.544          46.000    19986001.357    81839333.673        1423.646          44.000  
G32  20550752.315   107994936.158         748.554          44.000    20550753.639    84151895.947         583.191          41.000  
G 2  22371000.565   117560417.792        1811.204          32.000                                                                  
G14  21911321.366   115144792.304        1786.479          39.000                                                                  
> 2019  5 23  8 50 19.9930000  0  9                     
G 6  21439261.275   112664079.440         982.278          39.000    21439264.514    87790205.317         766.064          37.000  
G12  17848727.191    93795692.120        -358.105          49.000    17848725.008    73087541.572        -278.935          45.000  
G17  22083278.563   116048425.375       -4013.804          41.000    22083278.210                3      -3129.244          22.000  
G19  20087586.053   105560969.619       -3351.942          43.000                                                                  
G24  18656751.626    98041888.046       -2814.679          50.000    18656754.441    76396278.682       -2193.555          47.000  
G25  19985651.473   105025306.918        1827.668          46.000    19985653.632    81837910.029        1424.136          44.000  
G32  20550609.742   107994187.301         749.770          44.000    20550611.108    84151312.445         583.523          41.000  
G 2  22370655.784   117558606.193        1812.843          37.000                                                                  
G14  21910981.315   115143005.031        1786.807          40.000                                                                  
> 2019  5 23  8 50 20.9930000  0  9                     
G 6  21439073.941   112663095.287         985.283          41.000    21439077.371    87789438.453         768.390          34.000  
G12  17848795.071    93796048.647        -355.417          49.000    17848792.861    73087819.396        -277.436          45.000  
G17  22084041.968   116052437.660       -4011.921          41.000    22084043.435                       -3125.375          30.000  
G19  20088223.565   105564319.840       -3348.491          42.000                                                                  
G24  18657286.970    98044701.101       -2812.298          49.000    18657289.797    76398470.671       -2191.455          47.000  
G25  19985303.248   105023477.649        1830.677          46.000    19985305.490    81836484.649        1425.505          44.000  
G32  20550466.837   107993436.576         751.545          45.000    20550468.120    84150727.416         585.923          41.000  
G 2  22370310.469   117556792.223        1814.908          34.000                                                                  
G14  21910640.795   115141215.530        1790.847          39.000                                                                  
> 2019  5 23  8 50 21.9930000  0  9                     
G 6  21438886.371   112662109.733         985.536          43.000    21438889.858    87788670.408         768.367          41.000  
G12  17848862.574    93796403.455        -354.941          50.000    17848860.364    73088095.848        -276.343          45.000  
G17  22084805.023   116056447.814       -4011.369          43.000    22084805.631                3      -3112.483          23.000  
G19  20088860.828   105567668.483       -3348.181          39.000                                                                  
G24  18657822.085    98047512.348       -2811.060          49.000    18657824.669    76400661.237       -2190.381          47.000  
G25  19984954.744   105021646.438        1831.295          47.000    19984957.069    81835057.713        1427.350          43.000  
G32  20550323.667   107992684.142         752.104          45.000    20550324.827    84150141.127         586.357          41.000  
G 2  22369964.905   117554976.093        1816.993          34.000                                                                  
G14  21910299.910   115139424.143        1791.195          39.000                                                                  
> 2019  5 23  8 50 22.9930000  0  9                     
G 6  21438698.718   112661123.578         986.601          38.000    21438702.270                         768.280          31.000  
G12  17848930.087    93796757.967        -354.653          49.000    17848927.835    73088372.096        -276.374          45.000  
G17  22085568.093   116060457.554       -4010.875          43.000    22085567.481                       -3124.822          30.000  
G19  20089497.919   105571016.785       -3348.394          45.000                                                                  
G24  18658356.961    98050323.336       -2811.298          49.000    18658359.620    76402851.609       -2190.595          47.000  
G25  19984606.201   105019814.757        1831.540          47.000    19984608.500    81833630.435        1427.367          43.000  
G32  20550180.419   107991931.507         752.192          45.000    20550181.586    84149554.666         586.160          41.000  
G 2  22369619.282   117553159.586        1816.896          37.000                                                                  
G14  21909958.931   115137632.375        1791.416          39.000                                                                  
> 2019  5 23  8 50 23.9930000  0  9                     
G 6  21438511.201   112660138.214         984.942          45.000    21438514.877    87787134.160         767.700          41.000  
G12  17848997.610    93797113.087        -355.368          49.000    17848995.527    73088648.824        -277.122          45.000  
G17  22086331.142   116064467.372       -4009.324          32.000    22086330.879                3      -3129.342          23.000  
G19  20090135.202   105574365.707       -3349.136          39.000                                                                  
G24  18658892.051    98053134.829       -2812.073          50.000    18658894.557    76405042.370       -2190.857          47.000  
G25  19984257.659   105017983.478        1831.438          47.000    19984259.965    81832203.465        1426.756          43.000  
G32  20550037.343   107991179.548         751.117          44.000    20550038.546    84148968.700         585.840          42.000  
G 2  22369273.461   117551343.163        1815.936          34.000                                                                  
G14  21909618.113   115135841.011        1791.513          39.000                                                                  
> 2019  5 23  8 50 24.9930000  0  9                     
G 6  21438323.840   112659153.493         984.135          43.000    21438327.456    87786366.906         766.561          40.000  
G12  17849065.357    93797468.984        -356.676          49.000    17849063.296    73088926.135        -277.581          45.000  
G17  22087094.401   116068478.039       -4011.420          42.000    22087092.331                       -3123.725          30.000  
G19  20090772.633   105577715.534       -3350.186          43.000                                                                  
G24  18659427.245    98055947.034       -2812.842          49.000    18659429.678    76407233.740       -2192.053          47.000  
G25  19983909.227   105016152.784        1830.093          46.000    19983911.549    81830776.953        1425.933          43.000  
G32  20549894.383   107990428.422         750.292          45.000    20549895.627    84148383.418         584.786          41.000  
G 2  22368927.866   117549527.187        1815.317          37.000                                                                  
G14  21909277.308   115134050.370        1789.620          37.000                                                                  
> 2019  5 23  8 50 25.9930000  0  9                     
G 6  21438136.931   112658171.060         982.465          44.000    21438140.552    87785601.332         765.429          38.000  
G12  17849133.444    93797827.128        -358.232          49.000    17849131.487    73089205.219        -278.986          45.000  
G17  22087857.985   116072490.594       -4012.659          42.000    22087852.971                       -3126.557          30.000  
G19  20091410.499   105581067.647       -3352.182          44.000                                                                  
G24  18659962.733    98058761.473       -2814.569          49.000    18659965.257    76409426.783       -2193.036          47.000  
G25  19983561.243   105014324.154        1828.608          47.000    19983563.491    81829352.041        1424.724          43.000  
G32  20549751.863   107989679.674         748.564          43.000    20549753.171    84147799.975         583.269          41.000  
G 2  22368582.480   117547713.157        1814.172          35.000                                                                  
G14  21908936.972   115132261.773        1788.410          40.000                                                                  
> 2019  5 23  8 50 26.9930000  0  9                     
G 6  21437949.877   112657188.150         983.524          44.000    21437953.506    87784835.470         766.046          39.000  
G12  17849201.519    93798184.814        -357.216          49.000    17849199.497    73089483.936        -278.323          45.000  
G17  22088621.517   116076502.381       -4010.980          42.000    22088616.591                       -3125.385          30.000  
G19  20092048.229   105584419.342       -3351.433          44.000                                                                  
G24  18660498.195    98061575.411       -2813.501          50.000    18660500.749    76411619.465       -2192.365          47.000  
G25  19983213.201   105012494.846        1829.861          47.000    19983215.307    81827926.609        1425.913          44.000  
G32  20549609.209   107988930.517         749.665          44.000    20549610.575    84147216.216         584.104          41.000  
G 2  22368236.866   117545898.304        1815.450          35.000                                                                  
G14  21908596.434   115130472.632        1789.623          41.000                                                                  
> 2019  5 23  8 50 27.9930000  0  9                     
G 6  21437762.651   112656204.462         983.958          44.000    21437766.224    87784068.919         767.007          38.000  
G12  17849269.487    93798541.718        -356.601          49.000    17849267.381    73089762.048        -277.853          45.000  
G17  22089384.695   116080513.201       -4010.682          42.000    22089377.743                       -3125.453          30.000  
G19  20092685.907   105587770.272       -3350.388          43.000                                                                  
G24  18661033.531    98064388.503       -2812.756          50.000    18661035.976    76413811.488       -2191.583          47.000  
G25  19982864.822   105010664.552        1830.712          47.000    19982866.977    81826500.423        1426.298          44.000  
G32  20549466.498   107988180.650         750.250          44.000    20549467.891    84146631.894         584.673          41.000  
G 2  22367891.332   117544082.353        1816.168          36.000                                                                  
G14  21908255.733   115128682.552        1790.421          41.000                                                                  
> 2019  5 23  8 50 28.9930000  0  9                     
G 6  21437575.317   112655219.888         985.580          44.000    21437578.769    87783301.743         767.625          38.000  
G12  17849337.239    93798897.756        -354.890          49.000    17849335.081    73090039.474        -276.540          45.000  
G17  22090147.671   116084522.876       -4008.246          42.000    22090141.712                       -3123.811          29.000  
G19  20093323.388   105591120.415       -3348.959          43.000                                                                  
G24  18661568.595    98067200.718       -2811.115          49.000    18661571.125    76416002.825       -2190.442          47.000  
G25  19982516.323   105008833.225        1832.367          47.000    19982518.480    81825073.396        1427.899          44.000  
G32  20549323.620   107987429.984         751.756          44.000    20549325.053    84146046.980         586.168          40.000  
G 2  22367545.616   117542265.199        1818.054          38.000                                                                  
G14  21907914.971   115126891.475        1792.496          40.000                                                                  
> 2019  5 23  8 50 29.9930000  0  9                     
G 6  21437387.509   112654232.997         987.500          44.000    21437390.874    87782532.723         769.285          38.000  
G12  17849404.708    93799251.496        -353.258          49.000    17849402.436    73090315.128        -275.360          46.000  
G17  22090910.136   116088530.001       -4006.397          43.000    22090904.662                       -3120.865          30.000  
G19  20093960.469   105594468.292       -3347.366          43.000                                                                  
G24  18662103.255    98070010.590       -2809.302          49.000    18662105.889    76418192.338       -2189.178          47.000  
G25  19982167.485   105006999.372        1834.432          47.000    19982169.565    81823644.422        1429.428          43.000  
G32  20549180.424   107986677.130         753.323          45.000    20549181.747    84145460.317         587.130          41.000  
G 2  22367199.380   117540445.388        1820.293          38.000                                                                  
G14  21907573.737   115125097.964        1794.225          39.000                                                                  
> 2019  5 23  8 50 30.9930000  0  9                     
G 6  21437199.568   112653245.611         987.024          44.000    21437203.042    87781763.348         769.179          38.000  
G12  17849471.896    93799604.752        -353.842          49.000    17849469.743    73090590.393        -275.663          45.000  
G17  22091672.554   116092536.390       -4006.516          42.000    22091668.160                       -3122.285          30.000  
G19  20094597.463   105597815.698       -3347.418          43.000                                                                  
G24  18662637.781    98072819.907       -2809.851          49.000    18662640.519    76420381.410       -2189.459          47.000  
G25  19981818.259   105005164.841        1834.072          47.000    19981820.324    81822214.902        1429.569          43.000  
G32  20549037.163   107985923.847         752.664          45.000    20549038.360    84144873.347         586.225          41.000  
G 2  22366852.890   117538624.729        1820.319          38.000                                                                  
G14  21907232.188   115123303.798        1793.507          39.000                                                                  
> 2019  5 23  8 50 31.9930000  0  9                     
G 6  21437012.039   112652260.205         983.903          44.000    21437015.522    87780995.481         766.850          39.000  
G12  17849539.468    93799959.985        -356.800          49.000    17849537.309    73090867.188        -277.760          46.000  
G17  22092435.385   116096544.540       -4010.196          41.000    22092430.910                       -3126.568          30.000  
G19  20095234.864   105601165.220       -3352.003          42.000                                                                  
G24  18663172.706    98075631.148       -2812.695          49.000    18663175.443    76422571.990       -2191.626          47.000  
G25  19981469.433   105003332.094        1831.338          47.000    19981471.641    81820786.801        1427.148          44.000  
G32  20548894.125   107985172.599         750.487          44.000    20548895.587    84144287.968         584.670          40.000  
G 2  22366506.829   117536805.760        1817.678          38.000                                                                  
G14  21906891.087   115121511.568        1790.062          40.000                                                                  
> 2019  5 23  8 50 32.9930000  0  9                     
G 6  21436824.647   112651275.191         985.135          42.000    21436828.118    87780227.959         768.444          40.000  
G12  17849607.048    93800315.655        -355.041          49.000    17849605.044    73091144.351        -276.885          46.000  
G17  22093198.115   116100552.732       -4006.405          40.000    22093193.615                1      -3116.247          23.000  
G19  20095872.323   105604515.225       -3348.982          39.000                                                                  
G24  18663707.679    98078442.779       -2810.907          49.000    18663710.497    76424762.875       -2190.295          47.000  
G25  19981120.826   105001499.580        1833.206          47.000    19981122.992    81819358.872        1428.372          44.000  
G32  20548751.216   107984421.886         751.467          45.000    20548752.717    84143703.006         585.414          41.000  
G 2  22366160.710   117534986.845        1819.471          38.000                                                                  
G14  21906550.088   115119719.532        1792.978          40.000                                                                  
> 2019  5 23  8 50 33.9930000  0  9                     
G 6  21436637.194   112650290.257         983.424          38.000    21436640.688    87779460.510         766.986          35.000  
G12  17849674.709    93800671.317        -356.349          50.000    17849672.664    73091421.483        -277.780          45.000  
G17  22093960.840   116104560.873       -4009.587          42.000    22093954.952                       -3123.995          30.000  
G19  20096509.785   105607865.097       -3350.982          42.000                                                                  
G24  18664242.723    98081254.396       -2812.427          50.000    18664245.550    76426953.735       -2191.339          47.000  
G25  19980772.155   104999666.866        1832.113          47.000    19980774.367    81817930.769        1427.551          44.000  
G32  20548608.331   107983671.238         749.894          44.000    20548609.933    84143118.085         584.223          41.000  
G 2  22365814.490   117533167.639        1818.124          38.000                                                                  
G14  21906209.069   115117927.425        1791.165          40.000                                                                  
> 2019  5 23  8 50 34.9930000  0  9                     
G 6  21436450.114   112649306.509         983.319          41.000    21436453.470    87778693.984         766.019          37.000  
G12  17849742.711    93801028.381        -357.712          49.000    17849740.647    73091699.724        -278.972          45.000  
G17  22094723.664   116108570.040       -4010.196          42.000    22094720.874                       -3124.151          29.000  
G19  20097147.578   105611216.576       -3353.217          43.000                                                                  
G24  18664778.222    98084067.381       -2813.843          50.000    18664780.719    76429145.669       -2192.456          48.000  
G25  19980423.663   104997835.360        1830.842          47.000    19980425.805    81816503.630        1426.421          44.000  
G32  20548465.714   107982922.071         748.385          44.000    20548467.334    84142534.305         583.400          41.000  
G 2  22365468.524   117531349.423        1818.036          37.000                                                                  
G14  21905868.328   115116136.552        1790.146          40.000                                                                  
> 2019  5 23  8 50 35.9930000  0  9                     
G 6  21436263.130   112648323.880         982.169          44.000    21436266.565    87777928.228         765.668          39.000  
G12  17849810.857    93801386.387        -358.359          50.000    17849808.765    73091978.686        -279.349          45.000  
G17  22095486.772   116112579.901       -4010.312          42.000    22095484.752                       -3125.051          29.000  
G19  20097785.508   105614568.929       -3352.373          43.000                                                                  
G24  18665313.712    98086881.247       -2814.203          50.000    18665316.167    76431338.305       -2192.926          47.000  
G25  19980075.373   104996004.568        1830.634          47.000    19980077.466    81815077.036        1426.509          44.000  
G32  20548323.198   107982173.914         747.760          45.000    20548324.920    84141951.340         582.559          41.000  
G 2  22365122.674   117529531.906        1817.750          37.000                                                                  
G14  21905527.686   115114346.496        1789.981          40.000                                                                  
> 2019  5 23  8 50 36.9930000  0  9                     
G 6  21436076.116   112647341.554         982.058          44.000    21436079.633    87777162.799         765.190          39.000  
G12  17849879.065    93801744.765        -358.537          50.000    17849877.073    73092257.935        -279.331          45.000  
G17  22096249.874   116116589.897       -4010.253          42.000    22096250.746                       -3124.717          29.000  
G19  20098423.457   105617921.779       -3353.210          43.000                                                                  
G24  18665849.256    98089695.451       -2814.441          49.000    18665851.669    76433531.181       -2193.152          47.000  
G25  19979727.018   104994173.986        1830.473          46.000    19979729.105    81813650.611        1426.406          44.000  
G32  20548180.923   107981426.217         747.278          45.000    20548182.594    84141368.734         582.145          42.000  
G 2  22364776.946   117527714.259        1817.780          37.000                                                                  
G14  21905187.069   115112556.687        1789.679          40.000                                                                  
> 2019  5 23  8 50 37.9930000  0  9                     
G 6  21435889.257   112646359.952         981.216          43.000    21435892.877    87776397.898         764.498          39.000  
G12  17849947.365    93802103.870        -359.391          50.000    17849945.492    73092537.760        -280.106          45.000  
G17  22097013.120   116120600.364       -4010.396          42.000    22097011.577                       -3125.272          29.000  
G19  20099061.726   105621275.381       -3353.884          43.000                                                                  
G24  18666384.911    98092510.328       -2815.265          50.000    18666387.220    76435724.590       -2193.695          47.000  
G25  19979378.786   104992343.915        1829.718          46.000    19979380.917    81812224.587        1425.759          44.000  
G32  20548038.926   107980679.320         746.460          45.000    20548040.407    84140786.711         581.658          42.000  
G 2  22364431.137   117525897.159        1817.589          35.000                                                                  
G14  21904846.563   115110767.442        1789.265          40.000                                                                  
> 2019  5 23  8 50 38.9930000  0  9                     
G 6  21435702.567   112645379.013         980.664          44.000    21435706.270    87775633.536         764.136          39.000  
G12  17850015.894    93802463.653        -360.000          50.000    17850013.951    73092818.112        -280.570          45.000  
G17  22097776.426   116124611.295       -4011.174          42.000    22097774.735                       -3125.727          29.000  
G19  20099699.995   105624629.712       -3354.703          43.000                                                                  
G24  18666920.663    98095325.842       -2815.729          50.000    18666923.023    76437918.501       -2194.000          47.000  
G25  19979030.509   104990514.312        1829.477          47.000    19979032.686    81810798.929        1425.416          44.000  
G32  20547897.000   107979933.166         745.733          44.000    20547898.468    84140205.301         581.075          42.000  
G 2  22364085.351   117524080.337        1817.362          35.000                                                                  
G14  21904506.156   115108978.773        1788.334          40.000                                                                  
> 2019  5 23  8 50 39.9930000  0  9                     
G 6  21435516.052   112644399.062         979.128          44.000    21435519.860    87774869.947         762.737          39.000  
